[
  {
    "nameEn": "Kouris",
    "nameEl": "Κούρης",
    "yearOfConstruction": 1988,
    "height": 110,
    "capacity": 115000000,
    "lat": 34.72779846191406,
    "lng": 32.91780090332031,
    "riverNameEl": "Κούρης",
    "typeEl": "Xωμάτινο",
    "imageUrl": "http://www.cyprus.gov.cy/moa/wdd/wdd.nsf/All/6E89F8FECBC501E4C2256F100031C213/$file/99-Kouris_500.jpg",
    "wikipediaUrl": "https://en.wikipedia.org/wiki/Kouris_Dam"
  },
  {
    "nameEn": "Asprokremmos",
    "nameEl": "Ασπρόκρεμμος",
    "yearOfConstruction": 1982,
    "height": 53,
    "capacity": 52375000,
    "lat": 34.7256965637207,
    "lng": 32.555015563964844,
    "riverNameEl": "Ξερός Ποταμός",
    "typeEl": "Xωμάτινο",
    "imageUrl": "http://www.cyprus.gov.cy/moa/wdd/wdd.nsf/All/6E89F8FECBC501E4C2256F100031C213/$file/81-Asprokremos_500.jpg",
    "wikipediaUrl": "https://en.wikipedia.org/wiki/Asprokremmos_Dam"
  },
  {
    "nameEn": "Evretou",
    "nameEl": "Ευρέτου",
    "yearOfConstruction": 1986,
    "height": 70,
    "capacity": 24000000,
    "lat": 34.975826263427734,
    "lng": 32.47270202636719,
    "riverNameEl": "Σταυρός της Ψώκας",
    "typeEl": "Λιθόρριπτο",
    "imageUrl": "http://www.cyprus.gov.cy/moa/wdd/wdd.nsf/All/6E89F8FECBC501E4C2256F100031C213/$file/96-Evretou_500.jpg",
    "wikipediaUrl": "https://en.wikipedia.org/wiki/Evretou_Dam"
  },
  {
    "nameEn": "Kannaviou",
    "nameEl": "Κανναβιού",
    "yearOfConstruction": 2005,
    "height": 75,
    "capacity": 18000000,
    "lat": 34.92770004272461,
    "lng": 32.587799072265625,
    "riverNameEl": "Έζουσα",
    "typeEl": "Xωμάτινο/Λιθόρριπτο",
    "imageUrl": "http://www.cyprus.gov.cy/moa/wdd/wdd.nsf/All/339F46EA7BDFB08FC22575370028F67C/$file/Pict17.jpg",
    "wikipediaUrl": ""
  },
  {
    "nameEn": "Kalavasos",
    "nameEl": "Καλαβασός",
    "yearOfConstruction": 1985,
    "height": 60,
    "capacity": 17100000,
    "lat": 34.803714752197266,
    "lng": 33.26237106323242,
    "riverNameEl": "Βασιλικός",
    "typeEl": "Λιθόρριπτο",
    "imageUrl": "http://www.cyprus.gov.cy/moa/wdd/wdd.nsf/All/6E89F8FECBC501E4C2256F100031C213/$file/94-kalavasos_500.jpg",
    "wikipediaUrl": ""
  },
  {
    "nameEn": "Dipotamos",
    "nameEl": "Διπόταμος",
    "yearOfConstruction": 1985,
    "height": 60,
    "capacity": 15500000,
    "lat": 34.851619720458984,
    "lng": 33.359275817871094,
    "riverNameEl": "Πεντάσχοινος",
    "typeEl": "Λιθόρριπτο",
    "imageUrl": "http://www.cyprus.gov.cy/moa/wdd/wdd.nsf/All/6E89F8FECBC501E4C2256F100031C213/$file/95-Dhypotamos_500.jpg",
    "wikipediaUrl": ""
  },
  {
    "nameEn": "Lefkara",
    "nameEl": "Λεύκαρα",
    "yearOfConstruction": 1973,
    "height": 71,
    "capacity": 13850000,
    "lat": 34.89440155029297,
    "lng": 33.29560089111328,
    "riverNameEl": "Συργάτης (Πεντάσχοινος)",
    "typeEl": "Xωμάτινο/Λιθόρριπτο",
    "imageUrl": "http://www.cyprus.gov.cy/moa/wdd/wdd.nsf/All/FB2F2507BB13A833C2256F0900268224/$file/64-Lefkara_500.jpg",
    "wikipediaUrl": ""
  },
  {
    "nameEn": "Germasoyeia",
    "nameEl": "Γερμασόγεια",
    "yearOfConstruction": 1968,
    "height": 49,
    "capacity": 13500000,
    "lat": 34.743900299072266,
    "lng": 33.08430099487305,
    "riverNameEl": "Γερμασόγεια",
    "typeEl": "Xωμάτινο",
    "imageUrl": "http://www.cyprus.gov.cy/moa/wdd/wdd.nsf/All/FB2F2507BB13A833C2256F0900268224/$file/55-Yermasoyia_500.jpg",
    "wikipediaUrl": ""
  },
  {
    "nameEn": "Achna",
    "nameEl": "Άχνα",
    "yearOfConstruction": 1987,
    "height": 16,
    "capacity": 6800000,
    "lat": 35.055320739746094,
    "lng": 33.814308166503906,
    "riverNameEl": "Εξωποτάμιο φράγμα",
    "typeEl": "Xωμάτινο",
    "imageUrl": "http://www.cyprus.gov.cy/moa/wdd/wdd.nsf/All/6E89F8FECBC501E4C2256F100031C213/$file/97-Axna_500.jpg",
    "wikipediaUrl": ""
  },
  {
    "nameEn": "Arminou",
    "nameEl": "Αρμίνου",
    "yearOfConstruction": 1998,
    "height": 45,
    "capacity": 4300000,
    "lat": 34.87519836425781,
    "lng": 32.737098693847656,
    "riverNameEl": "Διάριζος",
    "typeEl": "Xωμάτινο/Λιθόρριπτο",
    "imageUrl": "http://www.cyprus.gov.cy/moa/wdd/wdd.nsf/All/6E89F8FECBC501E4C2256F100031C213/$file/104-Arminou_500.jpg",
    "wikipediaUrl": ""
  },
  {
    "nameEn": "Polemidia",
    "nameEl": "Πολεμίδια",
    "yearOfConstruction": 1965,
    "height": 45,
    "capacity": 3400000,
    "lat": 34.71870040893555,
    "lng": 32.988800048828125,
    "riverNameEl": "Γαρύλλης",
    "typeEl": "Xωμάτινο",
    "imageUrl": "http://www.cyprus.gov.cy/moa/wdd/wdd.nsf/All/CAEB057DDF020888C2256F090022C5D4/$file/41-Polemidhia_500.jpg",
    "wikipediaUrl": ""
  },
  {
    "nameEn": "Mavrokolympos",
    "nameEl": "Μαυροκόλυμπος",
    "yearOfConstruction": 1966,
    "height": 45,
    "capacity": 2180000,
    "lat": 34.85649871826172,
    "lng": 32.405799865722656,
    "riverNameEl": "Μαυροκόλυμπος",
    "typeEl": "Xωμάτινο",
    "imageUrl": "http://www.cyprus.gov.cy/moa/wdd/wdd.nsf/All/CAEB057DDF020888C2256F090022C5D4/$file/44-Mavrokolympos_500.jpg",
    "wikipediaUrl": ""
  },
  {
    "nameEn": "Vyzakia",
    "nameEl": "Βυζακιά",
    "yearOfConstruction": 1994,
    "height": 37,
    "capacity": 1690000,
    "lat": 35.0616340637207,
    "lng": 33.02715301513672,
    "riverNameEl": "Εξωποτάμιο φράγμα",
    "typeEl": "Xωμάτινο",
    "imageUrl": "http://www.cyprus.gov.cy/moa/wdd/wdd.nsf/All/6E89F8FECBC501E4C2256F100031C213/$file/100-Vizakia_500.jpg",
    "wikipediaUrl": ""
  },
  {
    "nameEn": "Xyliatos",
    "nameEl": "Ξυλιάτος",
    "yearOfConstruction": 1982,
    "height": 42,
    "capacity": 1430000,
    "lat": 35.008968353271484,
    "lng": 33.037330627441406,
    "riverNameEl": "Λαγουδερά (Ελιά)",
    "typeEl": "Λιθόρριπτο",
    "imageUrl": "http://www.cyprus.gov.cy/moa/wdd/wdd.nsf/All/6E89F8FECBC501E4C2256F100031C213/$file/82-Xyliatos_500.jpg",
    "wikipediaUrl": ""
  },
  {
    "nameEn": "Argaka",
    "nameEl": "Αργάκα",
    "yearOfConstruction": 1964,
    "height": 41,
    "capacity": 990000,
    "lat": 35.048606872558594,
    "lng": 32.50206756591797,
    "riverNameEl": "Μακούντα",
    "typeEl": "Λιθόρριπτο",
    "imageUrl": "http://www.cyprus.gov.cy/moa/wdd/wdd.nsf/All/CAEB057DDF020888C2256F090022C5D4/$file/30-Argaka_500.jpg",
    "wikipediaUrl": ""
  },
  {
    "nameEn": "Pomos",
    "nameEl": "Πομός",
    "yearOfConstruction": 1966,
    "height": 38,
    "capacity": 860000,
    "lat": 35.14495849609375,
    "lng": 32.57540512084961,
    "riverNameEl": "Λειβάδι",
    "typeEl": "Λιθόρριπτο",
    "imageUrl": "http://www.cyprus.gov.cy/moa/wdd/wdd.nsf/All/CAEB057DDF020888C2256F090022C5D4/$file/45-Pomos_500.jpg",
    "wikipediaUrl": ""
  },
  {
    "nameEn": "Kalopanagiotis",
    "nameEl": "Καλοπαναγιώτης",
    "yearOfConstruction": 1966,
    "height": 40,
    "capacity": 363000,
    "lat": 35.006126403808594,
    "lng": 32.825435638427734,
    "riverNameEl": "Σέτραχος (Μαραθάσας)",
    "typeEl": "Xωμάτινο",
    "imageUrl": "http://www.cyprus.gov.cy/moa/wdd/wdd.nsf/All/CAEB057DDF020888C2256F090022C5D4/$file/43-Kalopanayiotis_500.jpg",
    "wikipediaUrl": ""
  }
]